id,stop_name,latitude,longitude,cluster
1,Stop A,-1.2921,36.8219,2
2,Stop B,-1.2922,36.822,2
3,Stop C,-1.2918,36.8215,2
4,Stop D,-1.3,36.82,0
5,Stop E,-1.301,36.819,0
6,Stop F,-1.303,36.818,0
7,Stop G,-1.304,36.817,0
8,Stop H,-1.29,36.823,1
9,Stop I,-1.289,36.824,1
10,Stop J,-1.288,36.825,1
